City_ID,City,Country,Lat,Lng,Max Temp,Humidity,Cloudiness,Wind Speed,Description
0,Husavik,IS,66.0449,-17.3389,24.71,84,87,33.49,light snow
1,Marathon,US,44.9,-89.7668,14.25,54,20,1.99,few clouds
2,Dikson,RU,73.5069,80.5464,4.48,93,100,18.86,overcast clouds
3,Albany,US,42.6001,-73.9662,32.27,79,100,4.74,overcast clouds
4,Nenjiang,CN,49.1833,125.2167,-8.03,92,89,4.23,overcast clouds
5,New Norfolk,AU,-42.7826,147.0587,63.66,70,95,1.99,overcast clouds
6,Hamilton,US,39.1834,-84.5333,28.63,87,100,1.99,light snow
7,Lavrentiya,RU,65.5833,-171.0,-10.62,99,7,3.94,clear sky
8,Aviles,ES,43.5547,-5.9248,49.73,81,75,6.91,broken clouds
9,Talnakh,RU,69.4865,88.3972,2.21,92,100,12.71,light snow
10,Chulym,RU,55.0997,80.9572,-7.62,100,94,4.59,overcast clouds
11,Atuona,PF,-9.8,-139.0333,77.45,75,22,16.64,few clouds
12,Grand Gaube,MU,-20.0064,57.6608,79.2,78,6,1.99,clear sky
13,Ribeira Grande,PT,38.5167,-28.7,57.6,67,40,11.5,scattered clouds
14,Tatawin,TN,32.9297,10.4518,49.08,45,13,7.02,few clouds
15,Hilo,US,19.7297,-155.09,80.33,57,40,0.0,scattered clouds
16,Dhidhdhoo,MV,6.8833,73.1,81.63,70,6,19.75,clear sky
17,Hermanus,ZA,-34.4187,19.2345,61.81,75,0,11.59,clear sky
18,Awjilah,LY,29.1081,21.2869,53.87,57,5,8.08,clear sky
19,Henties Bay,NA,-22.116,14.2845,63.86,82,40,10.6,scattered clouds
20,Butaritari,KI,3.0707,172.7902,81.73,79,92,17.81,light rain
21,Avarua,CK,-21.2078,-159.775,82.45,78,20,13.8,few clouds
22,Hobart,AU,-42.8794,147.3294,64.02,81,75,1.01,broken clouds
23,Jamestown,US,42.097,-79.2353,22.32,58,100,5.01,overcast clouds
24,Cherskiy,RU,68.75,161.3,-14.51,92,100,1.79,overcast clouds
25,Yellowknife,CA,62.456,-114.3525,0.41,90,100,11.5,light snow
26,Norman Wells,CA,65.282,-126.8329,-5.76,77,100,9.22,light snow
27,Bambous Virieux,MU,-20.3428,57.7575,79.05,89,75,4.61,light rain
28,Puerto Ayora,EC,-0.7393,-90.3518,82.36,76,80,9.51,broken clouds
29,Mataura,NZ,-46.1927,168.8643,56.48,68,93,1.81,overcast clouds
30,Itarema,BR,-2.9248,-39.9167,72.48,91,100,9.46,overcast clouds
31,Mangan,IN,27.5167,88.5333,46.81,35,1,6.4,clear sky
32,Buala,SB,-8.145,159.5921,79.57,81,93,7.72,overcast clouds
33,Asau,RO,46.4333,26.4,38.32,75,99,10.29,overcast clouds
34,Bluff,NZ,-46.6,168.3333,55.8,74,86,5.06,overcast clouds
35,Hithadhoo,MV,-0.6,73.0833,80.69,61,27,5.61,scattered clouds
36,Rikitea,PF,-23.1203,-134.9692,77.86,72,100,16.51,overcast clouds
37,Nikolskoye,RU,59.7035,30.7861,29.88,96,100,5.86,light snow
38,Ushuaia,AR,-54.8,-68.3,60.46,59,40,3.44,scattered clouds
39,Geraldton,AU,-28.7667,114.6,70.21,83,0,9.22,clear sky
40,Moura,PT,38.1401,-7.4486,51.91,62,3,6.08,clear sky
41,Tuktoyaktuk,CA,69.4541,-133.0374,-18.4,76,20,14.97,few clouds
42,Mehamn,NO,71.0357,27.8492,31.91,63,100,5.61,overcast clouds
43,Arraial Do Cabo,BR,-22.9661,-42.0278,80.56,89,75,6.91,broken clouds
44,Birmitrapur,IN,22.4,84.7667,52.7,52,6,3.24,clear sky
45,Thinadhoo,MV,0.5333,72.9333,80.62,61,29,7.52,scattered clouds
46,Tiarei,PF,-17.5333,-149.3333,84.22,76,15,17.72,light rain
47,Vaini,TO,-21.2,-175.2,82.27,79,100,19.13,overcast clouds
48,Diego De Almagro,CL,-26.3667,-70.05,80.89,24,0,13.85,clear sky
49,Kodiak,US,57.79,-152.4072,27.91,69,100,12.66,light snow
50,Narsaq,GL,60.9167,-46.05,17.82,72,100,8.66,overcast clouds
51,Ahipara,NZ,-35.1667,173.1667,66.85,65,99,10.0,overcast clouds
52,Severo-Kurilsk,RU,50.6789,156.125,23.11,73,100,31.18,overcast clouds
53,Busselton,AU,-33.65,115.3333,65.05,63,0,13.02,clear sky
54,San Cristobal,VE,7.7669,-72.225,78.98,39,81,4.29,broken clouds
55,Xianshuigu,CN,38.985,117.3828,28.4,50,16,4.47,few clouds
56,Energetik,RU,51.7445,58.7934,10.36,90,100,6.69,overcast clouds
57,Kavieng,PG,-2.5744,150.7967,81.43,77,100,6.04,light rain
58,Kualakapuas,ID,-3.0091,114.3876,73.56,93,100,1.72,overcast clouds
59,San Patricio,US,28.017,-97.5169,57.87,41,100,12.97,overcast clouds
60,Kapaa,US,22.0752,-159.319,77.11,71,0,1.01,clear sky
61,Narasannapeta,IN,18.4167,84.05,64.31,64,99,6.71,overcast clouds
62,Half Moon Bay,US,37.4636,-122.4286,67.59,50,0,0.0,clear sky
63,Sitka,US,57.0531,-135.33,44.49,81,100,18.41,light rain
64,Zarubino,RU,42.63,131.0922,14.4,62,3,22.3,clear sky
65,Saint-Philippe,RE,-21.3585,55.7679,76.55,75,14,6.29,few clouds
66,Tasiilaq,GL,65.6145,-37.6368,14.16,65,48,6.26,scattered clouds
67,Tutoia,BR,-2.7619,-42.2744,78.78,87,100,12.75,overcast clouds
68,Tual,ID,-5.6667,132.75,83.19,77,98,13.62,overcast clouds
69,Faranah,GN,10.0404,-10.7434,80.92,17,18,4.32,few clouds
70,Chokurdakh,RU,70.6333,147.9167,-30.86,96,96,4.12,overcast clouds
71,Teknaf,BD,20.8624,92.3058,59.07,61,88,13.06,overcast clouds
72,Tautira,PF,-17.7333,-149.15,84.22,75,24,16.75,light rain
73,Nara,JP,34.6851,135.8049,37.98,75,83,0.87,broken clouds
74,Thompson,CA,55.7435,-97.8558,-5.64,65,100,4.61,overcast clouds
75,Dzerzhinsk,RU,56.2389,43.4631,15.62,86,20,6.71,few clouds
76,Pirovskoye,RU,57.6267,92.2658,-1.55,99,100,3.51,overcast clouds
77,Nanortalik,GL,60.1432,-45.2371,24.71,85,100,4.7,light snow
78,Torbay,CA,47.6666,-52.7314,26.28,83,100,6.91,light snow
79,Kaitangata,NZ,-46.2817,169.8464,61.74,59,87,1.83,overcast clouds
80,Touros,BR,-5.1989,-35.4608,77.9,73,70,6.53,broken clouds
81,Homer,US,59.6425,-151.5483,26.49,80,100,3.44,light snow
82,Upernavik,GL,72.7868,-56.1549,1.2,62,100,9.69,overcast clouds
83,Matara,LK,5.9485,80.5353,74.35,90,38,4.7,scattered clouds
84,Luderitz,NA,-26.6481,15.1594,69.33,71,0,28.34,clear sky
85,Avera,US,33.194,-82.5271,50.76,39,100,7.74,overcast clouds
86,Punta Arenas,CL,-53.15,-70.9167,71.71,20,0,14.97,clear sky
87,Tafalla,ES,42.5269,-1.6745,45.48,88,0,7.58,clear sky
88,Lazaro Cardenas,MX,17.9583,-102.2,83.05,56,0,9.75,clear sky
89,Bredasdorp,ZA,-34.5322,20.0403,63.72,72,35,6.91,scattered clouds
90,Kloulklubed,PW,7.0419,134.2556,77.5,82,86,13.15,overcast clouds
91,Mahon,ES,39.8885,4.2658,48.76,87,0,6.91,clear sky
92,Kjollefjord,NO,70.9457,27.3465,31.78,66,100,5.84,overcast clouds
93,Memphis,US,35.1495,-90.049,47.17,41,40,14.97,scattered clouds
94,Uribia,CO,11.7139,-72.266,88.11,44,7,13.15,clear sky
95,Daru,PG,-9.0763,143.2092,77.29,88,100,6.85,overcast clouds
96,Mar Del Plata,AR,-38.0023,-57.5575,75.22,72,20,20.0,few clouds
97,Amga,RU,60.8953,131.9608,-28.21,100,100,2.24,overcast clouds
98,Araouane,ML,18.9048,-3.5265,71.13,15,62,10.51,broken clouds
99,Pelym,RU,61.0108,61.9978,-10.64,100,97,2.77,overcast clouds
100,Kuloy,RU,61.0305,42.4925,13.91,93,100,7.72,overcast clouds
101,Marshfield,US,44.6689,-90.1718,14.34,52,75,9.22,broken clouds
102,Grants,US,35.1473,-107.8514,39.43,33,0,6.91,clear sky
103,Arlit,NE,18.7369,7.3853,63.82,14,0,9.28,clear sky
104,Murgab,TM,37.4966,61.9714,39.07,70,75,4.61,broken clouds
105,Barrow,US,71.2906,-156.7887,-14.78,70,100,17.27,overcast clouds
106,Taoudenni,ML,22.6783,-3.9836,74.03,13,94,11.61,overcast clouds
107,Alot,IN,23.7667,75.55,52.99,40,0,5.03,clear sky
108,Port Moresby,PG,-9.4431,147.1797,74.62,100,40,5.75,scattered clouds
109,Arroyo,ES,41.6096,-4.7969,40.14,52,0,9.22,clear sky
110,Saint-Augustin,CA,51.226,-58.6502,23.43,90,100,13.18,snow
111,Mitsamiouli,KM,-11.3847,43.2844,80.85,72,91,4.21,overcast clouds
112,Banda Aceh,ID,5.5577,95.3222,78.51,84,26,5.84,scattered clouds
113,Lorengau,PG,-2.0226,147.2712,80.98,81,100,6.46,overcast clouds
114,Lebu,CL,-37.6167,-73.65,65.48,76,3,6.98,clear sky
115,Linares,CL,-35.85,-71.6,91.96,21,0,7.11,clear sky
116,Mount Gambier,AU,-37.8333,140.7667,60.71,100,100,9.22,overcast clouds
117,Tuatapere,NZ,-46.1333,167.6833,57.81,61,99,4.65,overcast clouds
118,Cidreira,BR,-30.1811,-50.2056,72.93,61,76,12.39,broken clouds
119,Bethel,US,41.3712,-73.414,33.17,79,100,1.01,overcast clouds
120,Annau,TM,37.8876,58.516,31.5,93,5,2.3,clear sky
121,Alice Springs,AU,-23.7,133.8833,72.95,100,75,9.22,broken clouds
122,Aleksandrovskiy Zavod,RU,50.9237,117.9374,-17.09,95,50,3.42,scattered clouds
123,Victoria,HK,22.2855,114.1577,66.18,89,84,3.0,broken clouds
124,Constitucion,CL,-35.3333,-72.4167,65.32,72,0,11.39,clear sky
125,Juneau,US,58.3019,-134.4197,42.22,97,100,1.01,overcast clouds
126,Payakumbuh,ID,-0.2202,100.6308,69.48,95,99,0.74,overcast clouds
127,Puerto Del Rosario,ES,28.5004,-13.8627,64.15,77,20,17.27,few clouds
128,Stoughton,US,42.1251,-71.1023,36.45,63,100,1.01,overcast clouds
129,Marsa Matruh,EG,31.3525,27.2453,50.2,76,40,11.5,scattered clouds
130,Baisha,CN,26.5222,110.9311,34.2,96,100,3.2,snow
131,Vardo,NO,70.3705,31.1107,30.18,86,75,19.57,light snow
132,Bilibino,RU,68.0546,166.4372,-6.27,96,100,4.05,overcast clouds
133,Khatanga,RU,71.9667,102.5,-1.35,87,100,4.9,overcast clouds
134,Airai,TL,-8.9266,125.4092,59.92,92,100,3.15,overcast clouds
135,Souillac,MU,-20.5167,57.5167,79.18,89,75,4.61,broken clouds
136,Zhezkazgan,KZ,47.8043,67.7144,10.81,83,100,13.96,overcast clouds
137,Richards Bay,ZA,-28.783,32.0377,74.7,89,100,12.59,light rain
138,Thunder Bay,CA,48.4001,-89.3168,15.57,50,75,8.05,broken clouds
139,Esso,RU,55.9333,158.7,19.9,97,100,0.98,overcast clouds
140,Cape Town,ZA,-33.9258,18.4232,68.41,73,0,7.0,clear sky
141,San Juan De Los Morros,VE,9.9115,-67.3538,89.62,48,100,3.58,overcast clouds
142,Tiksi,RU,71.6872,128.8694,-3.69,98,100,7.27,overcast clouds
143,Sidi Ali,DZ,36.0998,0.4206,51.6,58,5,8.72,clear sky
144,Waipawa,NZ,-41.4122,175.5153,64.92,50,100,4.18,overcast clouds
145,Grajau,BR,-5.8194,-46.1386,73.62,96,89,4.0,overcast clouds
146,Nassau,US,40.7507,-73.5829,35.01,78,100,1.01,overcast clouds
147,Florida,US,28.7505,-82.5001,64.38,79,40,1.01,scattered clouds
148,Ponta Do Sol,PT,32.6667,-17.1,62.71,60,63,7.45,broken clouds
149,Poddorye,RU,57.4695,31.1156,31.71,99,100,5.17,snow
150,Sharan,RU,54.8167,54.0,6.84,97,99,3.78,overcast clouds
151,Naryan-Mar,RU,67.6713,53.087,0.43,96,99,9.53,overcast clouds
152,Lubango,AO,-14.9172,13.4925,61.21,97,100,7.2,overcast clouds
153,Valparaiso,CL,-33.0393,-71.6273,75.43,53,0,13.8,clear sky
154,Neiafu,TO,-18.65,-173.9833,82.96,77,71,20.6,light rain
155,Rasulabad,IN,26.75,80.4833,49.95,64,0,6.51,clear sky
156,Mahebourg,MU,-20.4081,57.7,79.09,89,75,4.61,broken clouds
157,Portland,US,45.5234,-122.6762,49.84,55,20,3.0,few clouds
158,Port Alfred,ZA,-33.5906,26.891,67.77,76,17,9.71,few clouds
159,Barcelona,ES,41.3888,2.159,55.47,46,0,7.0,clear sky
160,Rawlins,US,41.7911,-107.2387,34.02,29,0,15.82,clear sky
161,Zhigalovo,RU,54.8097,105.1578,-21.14,100,99,0.67,overcast clouds
162,Ostrovnoy,RU,68.0531,39.5131,10.29,94,88,9.06,overcast clouds
163,Miles City,US,46.4083,-105.8406,45.57,36,0,14.97,clear sky
164,Fairview,US,40.8126,-73.999,34.95,81,100,5.75,overcast clouds
165,Marawi,PH,7.9986,124.2928,64.65,92,17,2.08,few clouds
166,Nouadhibou,MR,20.931,-17.0347,64.38,77,100,14.97,overcast clouds
167,Namibe,AO,-15.1961,12.1522,72.82,81,100,5.91,overcast clouds
168,Suntar,RU,62.1444,117.6319,-10.98,95,31,6.4,scattered clouds
169,Corowa,AU,-36.0333,146.3833,73.0,85,100,4.36,overcast clouds
170,Clyde River,CA,70.4692,-68.5914,-9.17,77,100,40.29,heavy snow
171,Saint George,US,37.1041,-113.5841,53.44,21,0,4.0,clear sky
172,Fairbanks,US,64.8378,-147.7164,6.76,53,75,10.36,light snow
173,Cururupu,BR,-1.8283,-44.8683,73.35,96,100,6.51,overcast clouds
174,Pevek,RU,69.7008,170.3133,-17.61,100,32,2.04,scattered clouds
175,Leningradskiy,RU,69.3833,178.4167,-10.77,96,90,1.97,overcast clouds
176,Roald,NO,62.5833,6.1333,42.85,81,40,17.27,scattered clouds
177,Bathsheba,BB,13.2167,-59.5167,79.41,78,40,5.75,scattered clouds
178,Santo Domingo,DO,18.5001,-69.9886,85.68,64,20,4.0,few clouds
179,Catuday,PH,16.2923,119.8062,76.03,84,100,6.82,overcast clouds
180,Carballo,ES,43.213,-8.691,49.77,79,0,4.14,clear sky
181,Vestmannaeyjar,IS,63.4427,-20.2734,33.49,68,100,19.44,overcast clouds
182,College Station,US,30.628,-96.3344,57.6,29,0,17.27,clear sky
183,Fortuna,US,40.5982,-124.1573,63.93,52,0,3.0,clear sky
184,Tupelo,US,34.2576,-88.7034,48.25,34,75,13.0,broken clouds
185,Ilulissat,GL,69.2167,-51.1,17.62,45,100,24.16,overcast clouds
186,Cabo San Lucas,MX,22.8909,-109.9124,80.51,46,20,5.99,few clouds
187,Egvekinot,RU,66.3167,-179.1667,-5.26,91,27,3.24,scattered clouds
188,Brigantine,US,39.4101,-74.3646,41.2,54,100,4.61,overcast clouds
189,Garissa,KE,-0.4536,39.6401,79.75,66,89,14.56,overcast clouds
190,Chibuto,MZ,-24.6867,33.5306,77.27,66,67,7.07,broken clouds
191,Werda,BW,-25.2667,23.2833,75.04,58,22,11.83,few clouds
192,Sisimiut,GL,66.9395,-53.6735,18.91,66,100,19.84,overcast clouds
193,Thongwa,MM,16.7619,96.5278,73.56,62,71,8.84,broken clouds
194,Semirom,IR,31.4167,51.5667,18.46,80,7,3.06,clear sky
195,Ruteng,ID,-8.6136,120.4721,62.65,91,100,1.03,overcast clouds
196,Sakaiminato,JP,35.55,133.2333,40.98,70,75,6.91,broken clouds
197,Fenoarivo,MG,-18.933,47.4354,64.47,88,75,10.36,broken clouds
198,Flinders,AU,-34.5833,150.8552,74.05,85,13,5.99,few clouds
199,Visby,SE,57.6409,18.296,35.82,64,63,14.97,broken clouds
200,Mana,GF,5.6592,-53.7767,78.91,74,46,9.13,scattered clouds
201,Burns Lake,CA,54.2331,-125.7533,13.42,84,100,3.47,overcast clouds
202,Beloha,MG,-25.1667,45.05,71.1,88,0,9.62,clear sky
203,Lanxi,CN,29.2195,119.477,36.36,99,100,2.53,moderate rain
204,Guarumal,PA,8.35,-82.5333,90.93,65,66,10.47,broken clouds
205,Gannan,CN,47.9147,123.5031,2.07,75,25,9.46,scattered clouds
206,Longyearbyen,SJ,78.2186,15.6401,12.04,62,20,14.97,few clouds
207,Bengkulu,ID,-3.8004,102.2655,76.48,86,100,2.66,overcast clouds
208,Coihaique,CL,-45.5752,-72.0662,84.15,16,0,5.75,clear sky
209,Aasiaat,GL,68.7098,-52.8699,17.78,61,100,21.68,overcast clouds
210,Castro,BR,-24.7911,-50.0119,61.97,99,100,7.29,overcast clouds
211,East London,ZA,-33.0153,27.9116,70.05,79,44,10.78,light rain
212,Dolores,AR,-36.3132,-57.6792,77.92,37,0,7.83,clear sky
213,Deputatskiy,RU,69.3,139.9,-26.09,99,99,2.46,overcast clouds
214,Talas,TR,38.6908,35.5538,-3.33,92,5,4.61,clear sky
215,Srednekolymsk,RU,67.45,153.6833,-13.02,95,100,2.89,overcast clouds
216,Georgetown,MY,5.4112,100.3354,81.9,89,20,2.3,few clouds
217,Novikovo,RU,51.1537,37.8879,32.05,96,100,9.55,snow
218,Ballina,AU,-28.8667,153.5667,73.36,92,75,2.3,broken clouds
219,Isangel,VU,-19.55,169.2667,79.09,86,91,14.94,moderate rain
220,Alzamay,RU,55.5562,98.6644,-12.5,100,98,2.01,overcast clouds
221,Morris,US,40.8334,-74.5329,32.23,80,100,3.0,mist
222,Alofi,NU,-19.0595,-169.9187,84.09,79,75,10.36,broken clouds
223,Riachao Do Jacuipe,BR,-11.8069,-39.3856,79.56,67,84,11.72,moderate rain
224,Tefe,BR,-3.3542,-64.7114,82.51,83,75,6.91,broken clouds
225,Qaanaaq,GL,77.484,-69.3632,-12.89,62,1,8.43,clear sky
226,Tabou,CI,4.423,-7.3528,80.24,80,71,7.61,broken clouds
227,Sanandaj,IR,35.3144,46.9923,23.02,80,20,2.3,few clouds
228,Kununurra,AU,-15.7667,128.7333,78.78,94,75,5.75,broken clouds
229,Najran,SA,17.4924,44.1277,59.65,24,0,3.33,clear sky
230,Kruisfontein,ZA,-34.0033,24.7314,64.89,88,2,7.2,clear sky
231,Birjand,IR,32.8663,59.2211,37.87,28,0,4.61,clear sky
232,Saint-Pierre,RE,-21.3393,55.4781,76.64,78,1,5.75,clear sky
233,Pisco,PE,-13.7,-76.2167,77.05,61,0,18.41,clear sky
234,Biltine,TD,14.5333,20.9167,65.64,15,18,14.18,few clouds
235,Chapais,CA,49.7834,-74.8492,-9.62,89,100,3.47,overcast clouds
236,Kondinskoye,RU,59.6481,67.41,-7.69,100,86,4.29,overcast clouds
237,Benghazi,LY,32.1167,20.0667,57.09,71,69,14.43,broken clouds
238,Trofors,NO,65.5333,13.4063,34.95,95,100,5.32,overcast clouds
239,Beringovskiy,RU,63.05,179.3167,-5.31,95,99,2.82,overcast clouds
240,Meulaboh,ID,4.1363,96.1285,79.02,86,80,2.35,broken clouds
241,Jose De Freitas,BR,-4.7564,-42.5756,83.35,92,100,6.08,light rain
242,Padang,ID,-0.9492,100.3543,76.84,86,85,3.94,overcast clouds
243,Morondava,MG,-20.2833,44.2833,81.28,72,30,7.0,scattered clouds
244,Caravelas,BR,-17.7125,-39.2481,79.11,77,0,9.01,clear sky
245,Muli,MV,2.9167,73.5667,79.93,66,73,11.27,broken clouds
246,Pangkalanbuun,ID,-2.6833,111.6167,74.01,97,100,1.45,moderate rain
247,Coahuayana,MX,18.7333,-103.6833,90.88,43,18,7.63,few clouds
248,College,US,64.8569,-147.8028,6.75,53,100,11.5,light snow
249,Saskylakh,RU,71.9167,114.0833,0.93,89,100,6.04,overcast clouds
250,Vila Franca Do Campo,PT,37.7167,-25.4333,58.19,80,31,9.19,scattered clouds
251,Bardiyah,LY,31.7561,25.0865,53.65,76,21,11.7,few clouds
252,Dudinka,RU,69.4058,86.1778,2.62,92,100,20.56,overcast clouds
253,Tambovka,RU,50.0969,128.0489,-14.1,100,22,5.64,few clouds
254,Bonavista,CA,48.6499,-53.1147,27.12,68,100,14.9,overcast clouds
255,Kiunga,PG,-6.1219,141.2906,72.0,99,100,0.83,light rain
256,Partizansk,RU,43.1258,133.1339,7.29,70,71,7.76,broken clouds
257,Comodoro Rivadavia,AR,-45.8667,-67.5,64.26,82,75,9.22,broken clouds
258,Cervo,ES,43.6702,-7.4101,50.97,87,6,19.75,clear sky
259,La Ronge,CA,55.1001,-105.2842,7.05,72,100,10.36,overcast clouds
260,Mount Isa,AU,-20.7333,139.5,74.97,100,100,9.22,overcast clouds
261,Acapulco,MX,16.8634,-99.8901,84.02,70,0,8.05,clear sky
262,Atar,MR,20.5169,-13.0499,73.31,20,100,6.4,overcast clouds
263,Hovd,MN,48.0056,91.6419,-10.93,76,14,5.66,few clouds
264,Saldanha,ZA,-33.0117,17.9442,66.25,80,0,23.49,clear sky
265,Lasa,IT,46.6166,10.7002,37.31,76,46,8.3,scattered clouds
266,Saint-Georges,GD,12.0564,-61.7485,82.08,69,20,20.71,few clouds
267,Tarakan,ID,3.3,117.6333,76.55,86,100,5.1,overcast clouds
268,Vila Velha,BR,-20.3297,-40.2925,84.15,80,20,11.99,few clouds
269,Pangai,TO,-19.8,-174.35,83.19,77,81,19.82,light rain
270,Akyab,MM,20.15,92.9,60.84,62,99,13.38,overcast clouds
271,Villazon,BO,-22.0866,-65.5942,64.13,43,71,8.88,broken clouds
272,Haines City,US,28.1142,-81.6179,72.16,66,0,5.01,clear sky
273,Seymchan,RU,62.8833,152.4333,-10.25,93,100,4.18,overcast clouds
274,Basco,PH,20.4487,121.9702,74.23,85,100,28.79,light rain
275,Orange Cove,US,36.6244,-119.3137,68.85,31,100,3.83,overcast clouds
276,Itacare,BR,-14.2775,-38.9967,84.09,79,20,6.55,few clouds
277,Lagoa,PT,39.05,-27.9833,58.21,57,100,13.87,overcast clouds
278,Manicore,BR,-5.8092,-61.3003,79.3,79,100,3.56,overcast clouds
279,Teruel,ES,40.6667,-0.6667,39.16,45,0,1.72,clear sky
280,Batticaloa,LK,7.7102,81.6924,76.89,85,49,3.13,scattered clouds
281,Koraput,IN,18.8167,82.7167,52.99,42,75,2.73,broken clouds
282,Hasaki,JP,35.7333,140.8333,34.2,48,100,8.75,overcast clouds
283,Ambilobe,MG,-13.2,49.05,73.96,91,95,2.53,overcast clouds
284,Kenora,CA,49.8167,-94.4337,9.79,61,40,3.44,scattered clouds
285,Achit,RU,56.7985,57.8994,5.07,97,100,1.9,overcast clouds
286,Ola,RU,59.5833,151.2833,13.73,76,100,17.34,overcast clouds
287,Buturlino,RU,55.5667,44.8974,12.02,97,94,8.1,overcast clouds
288,Bereda,ES,43.2686,-7.5406,46.92,97,29,3.15,scattered clouds
289,Grand Forks,US,47.9417,-97.4337,13.93,76,100,5.75,overcast clouds
290,Faya,SA,18.3851,42.4509,51.91,86,92,3.11,overcast clouds
291,Kroya,ID,-7.6331,109.2461,77.2,87,98,2.68,overcast clouds
292,Monroe,US,43.1501,-77.6831,16.36,78,100,11.5,overcast clouds
293,Salalah,OM,17.0151,54.0924,71.69,78,0,3.44,clear sky
294,Okahandja,NA,-21.9833,16.9167,80.91,37,13,10.16,few clouds
295,Dabakala,CI,8.3667,-4.4333,82.58,20,24,2.93,few clouds
296,Cockburn Town,TC,21.4612,-71.1419,78.76,65,40,8.05,scattered clouds
297,Krasnoselkup,RU,65.7,82.4667,2.39,96,97,11.79,overcast clouds
298,Port Elizabeth,ZA,-33.918,25.5701,67.1,72,40,9.22,scattered clouds
299,Provideniya,RU,64.3833,-173.3,-2.49,99,17,2.66,few clouds
300,Tongren,CN,27.7172,109.1853,32.94,99,100,3.02,snow
301,San Quintin,MX,30.4833,-115.95,67.33,32,96,7.87,overcast clouds
302,Les Cayes,HT,18.2,-73.75,80.2,66,56,7.16,broken clouds
303,Ponta Delgada,PT,37.7333,-25.6667,58.5,88,75,8.05,broken clouds
304,Fomboni,KM,-12.28,43.7425,81.55,69,92,5.14,overcast clouds
305,Flin Flon,CA,54.7682,-101.865,-0.56,78,100,4.61,overcast clouds
306,Gijon,ES,43.5357,-5.6615,49.8,93,7,6.71,clear sky
307,Kavaratti,IN,10.5669,72.642,80.46,73,26,9.8,scattered clouds
308,Iqaluit,CA,63.7506,-68.5145,-13.27,77,100,18.41,light snow
309,Maragogi,BR,-9.0122,-35.2225,80.24,74,99,13.38,moderate rain
310,Goodlettsville,US,36.3231,-86.7133,41.45,52,100,13.69,overcast clouds
311,Beira,MZ,-19.8436,34.8389,80.69,83,0,8.05,clear sky
312,Phan Thiet,VN,10.9333,108.1,71.19,83,95,3.94,overcast clouds
313,Umkomaas,ZA,-30.2067,30.7978,72.59,86,96,16.44,overcast clouds
314,Tucupita,VE,9.0622,-62.051,84.65,49,50,3.44,scattered clouds
315,Teya,RU,60.3778,92.6267,-2.16,99,100,3.44,overcast clouds
316,Zhanjiang,CN,21.2815,110.3427,65.62,88,49,12.75,scattered clouds
317,Kalmunai,LK,7.4167,81.8167,75.04,90,25,5.91,scattered clouds
318,Los Llanos De Aridane,ES,28.6585,-17.9182,55.15,67,0,8.05,clear sky
319,Broken Hill,AU,-31.95,141.4333,69.51,83,100,12.66,overcast clouds
320,Santana,BR,-0.0583,-51.1817,78.98,94,100,19.57,mist
321,Shingu,JP,33.7333,135.9833,38.66,75,100,5.73,overcast clouds
322,Casa Grande,US,32.8795,-111.7573,69.6,19,0,11.99,clear sky
323,Lafia,NG,8.4833,8.5167,82.49,18,76,7.94,broken clouds
324,San Borja,BO,-14.8167,-66.85,80.04,74,97,0.72,overcast clouds
325,Bani Walid,LY,31.7566,13.9942,48.69,47,0,7.65,clear sky
326,Anadyr,RU,64.75,177.4833,-5.3,84,20,4.47,few clouds
327,Umm Lajj,SA,25.0213,37.2685,62.01,51,3,13.51,clear sky
328,Nogales,MX,31.3086,-110.9422,61.36,17,0,13.8,clear sky
329,Aklavik,CA,68.2191,-135.0107,-19.37,69,20,2.3,few clouds
330,Pengcheng,CN,36.4311,114.17,31.41,60,57,0.78,broken clouds
331,Nome,US,64.5011,-165.4064,-16.53,63,0,6.91,clear sky
332,Placido De Castro,BR,-10.3353,-67.1856,86.23,64,90,2.46,overcast clouds
333,Serenje,ZM,-13.2325,30.2352,62.94,97,100,3.96,light rain
334,Mosetse,BW,-20.75,26.65,69.48,90,100,6.93,overcast clouds
335,Lamar,US,33.6668,-95.5836,55.98,32,0,19.57,clear sky
336,Pattoki,PK,31.0167,73.85,48.07,49,0,3.33,clear sky
337,Ancud,CL,-41.8697,-73.8203,78.33,60,0,9.53,clear sky
338,Klaksvik,FO,62.2266,-6.589,43.72,82,88,24.4,overcast clouds
339,Barao De Melgaco,BR,-16.1944,-55.9675,86.52,88,100,3.02,light rain
340,Gander,CA,48.9682,-54.5906,24.93,68,100,17.0,overcast clouds
341,Carnarvon,AU,-24.8667,113.6333,69.87,94,0,6.91,clear sky
342,Elko,US,41.0002,-115.5012,36.05,30,0,2.15,clear sky
343,Havre-Saint-Pierre,CA,50.2334,-63.5986,19.4,62,20,16.11,few clouds
344,Mushie,CD,-3.0167,16.9,77.85,63,100,3.4,overcast clouds
345,Mendeleyevsk,RU,55.9082,52.2905,11.44,95,100,6.08,snow
346,Nioro,GM,13.35,-15.75,79.39,26,35,7.76,scattered clouds
347,Savannah Bight,HN,16.45,-85.85,84.25,70,3,8.77,clear sky
348,Nagato,JP,34.3833,131.2,42.71,56,91,9.04,overcast clouds
349,Port Hardy,CA,50.6996,-127.4199,47.75,76,75,6.91,broken clouds
350,Koumac,NC,-20.5667,164.2833,81.01,76,100,5.66,light rain
351,Dagshai,IN,30.8833,77.05,35.11,50,0,4.54,clear sky
352,Senador Jose Porfirio,BR,-2.5908,-51.9542,79.86,82,66,3.6,moderate rain
353,Ust-Maya,RU,60.4167,134.5333,-37.08,100,97,0.43,overcast clouds
354,Sokolka,PL,53.4072,23.5023,32.67,85,100,18.21,overcast clouds
355,Cartagena,CO,10.3997,-75.5144,87.42,62,20,16.11,few clouds
356,Terre Haute,US,39.4667,-87.4139,25.32,75,100,3.0,overcast clouds
357,San Luis Potosi,MX,22.5,-100.5,64.94,64,53,12.03,broken clouds
358,Havelock,US,34.8791,-76.9013,48.18,74,100,4.0,light rain
359,Umm Kaddadah,SD,13.6017,26.6876,57.29,16,3,15.57,clear sky
360,Ozernovskiy,RU,51.5,156.5167,24.08,78,100,24.7,light snow
361,Hay River,CA,60.8156,-115.7999,10.38,85,75,6.91,light snow
362,Poso,ID,-1.3959,120.7524,75.7,83,96,3.69,overcast clouds
363,Urubicha,BO,-15.3833,-62.95,77.14,92,96,1.3,overcast clouds
364,Chuy,UY,-33.6971,-53.4616,70.56,59,62,8.81,broken clouds
365,Faanui,PF,-16.4833,-151.75,81.41,74,12,17.85,light rain
366,Toktogul,KG,41.8708,72.9402,23.83,69,56,3.87,broken clouds
367,Coquimbo,CL,-29.9533,-71.3436,67.73,68,20,13.8,few clouds
368,Puerto Leguizamo,CO,-0.1934,-74.7819,94.66,31,59,3.36,broken clouds
369,Strezhevoy,RU,60.7333,77.5889,3.18,99,99,4.74,overcast clouds
370,Pierre,US,44.3683,-100.351,46.85,37,0,1.01,clear sky
371,Laem Sing,TH,12.4816,102.0738,83.14,83,81,1.92,broken clouds
372,Fianarantsoa,MG,-21.4333,47.0833,62.04,84,98,4.65,overcast clouds
373,Cabinda,AO,-5.55,12.2,78.17,85,98,2.64,overcast clouds
374,Gornopravdinsk,RU,60.05,69.9,-6.68,100,100,3.53,overcast clouds
375,Joao Camara,BR,-5.5375,-35.8197,76.24,72,95,7.31,heavy intensity rain
376,Yar-Sale,RU,66.8333,70.8333,-14.44,100,78,5.28,broken clouds
377,Denpasar,ID,-8.65,115.2167,80.26,83,40,4.61,scattered clouds
378,Cayenne,GF,4.9333,-52.3333,78.1,82,100,2.3,overcast clouds
379,Alice Town,BS,25.7167,-79.3,73.4,70,100,15.28,overcast clouds
380,Chumikan,RU,54.7183,135.315,-15.27,90,14,13.65,few clouds
381,Mastic Beach,US,40.7668,-72.8521,35.17,80,100,1.01,overcast clouds
382,Charleston,US,32.7766,-79.9309,49.19,43,20,1.99,few clouds
383,Trelew,AR,-43.249,-65.3051,80.38,45,7,19.44,clear sky
384,Karasuk,RU,53.7377,78.0403,0.46,95,99,5.68,overcast clouds
385,Anyksciai,LT,55.5256,25.1026,29.44,90,100,17.85,overcast clouds
386,Atasu,KZ,48.6814,71.6433,7.23,76,99,8.81,overcast clouds
387,Ketchikan,US,55.3422,-131.6461,45.07,93,100,13.8,moderate rain
388,Hvide Sande,DK,56.0045,8.1294,42.1,89,100,26.91,overcast clouds
389,Irbeyskoye,RU,55.6428,95.4522,-15.3,100,100,2.8,overcast clouds
390,Port Lincoln,AU,-34.7333,135.8667,66.34,78,81,15.19,broken clouds
391,Sao Felix Do Xingu,BR,-6.6447,-51.995,74.68,96,99,1.05,overcast clouds
392,Jieshi,CN,22.8134,115.8257,64.94,85,61,12.1,broken clouds
393,Sinnamary,GF,5.3833,-52.95,76.55,87,48,9.71,scattered clouds
394,Codrington,AU,-38.2667,141.9667,62.73,79,93,11.18,overcast clouds
395,Maues,BR,-3.3836,-57.7186,79.56,94,99,1.57,light rain
396,Haines Junction,CA,60.7522,-137.5108,24.75,74,100,3.44,overcast clouds
397,Havoysund,NO,70.9963,24.6622,25.68,79,100,6.24,overcast clouds
398,Poum,NC,-20.2333,164.0167,82.26,76,88,18.03,moderate rain
399,Samarai,PG,-10.6167,150.6667,80.69,77,88,3.98,moderate rain
400,Maxixe,MZ,-23.8597,35.3472,75.31,82,4,4.74,clear sky
401,Berdigestyakh,RU,62.0989,126.6992,-11.81,97,98,7.18,overcast clouds
402,Okitipupa,NG,6.5047,4.7839,72.59,83,99,1.39,overcast clouds
403,Hokitika,NZ,-42.7167,170.9667,63.19,65,3,1.43,clear sky
404,Davidson,US,36.1501,-86.7833,41.36,50,100,8.99,overcast clouds
405,Kikwit,CD,-5.041,18.8162,75.06,77,100,1.3,overcast clouds
406,Severo-Yeniseyskiy,RU,60.3725,93.0408,-3.78,97,100,4.05,overcast clouds
407,Priiskovyy,RU,51.9333,116.6333,-21.8,100,30,2.33,scattered clouds
408,Sept-Iles,CA,50.2001,-66.3821,7.32,58,20,7.0,few clouds
409,Wenling,CN,28.3669,121.36,43.92,88,100,14.07,overcast clouds
410,Katsuura,JP,35.1333,140.3,42.91,68,100,8.57,overcast clouds
411,Tulun,RU,54.5611,100.5792,-20.31,100,100,2.71,overcast clouds
412,Cap Malheureux,MU,-19.9842,57.6142,79.29,78,3,1.99,clear sky
413,Fukue,JP,32.6881,128.8419,46.69,62,100,18.81,light rain
414,Berlevag,NO,70.8578,29.0864,31.95,55,75,11.5,broken clouds
415,Hirtshals,DK,57.5881,9.9592,39.02,88,100,22.7,overcast clouds
416,Sobolevo,RU,54.4299,31.8996,31.69,99,100,7.14,snow
417,Kalininsk,RU,51.5,44.4758,0.05,99,99,5.68,overcast clouds
418,Balikpapan,ID,-1.2675,116.8289,72.59,100,40,4.61,scattered clouds
419,Laerdalsoyri,NO,61.098,7.4816,34.93,93,100,3.44,snow
420,Songea,TZ,-10.6833,35.65,64.94,96,100,1.88,light rain
421,Santo Tomas,PH,14.1079,121.1414,77.25,91,4,1.77,clear sky
422,Vastseliina,EE,57.7303,27.2932,29.05,92,100,11.99,light snow
423,Suffolk,US,40.8668,-72.7996,35.04,81,100,7.0,overcast clouds
424,Batemans Bay,AU,-35.7167,150.1833,76.19,77,62,1.52,broken clouds
425,Kundiawa,PG,-6.0167,144.9667,63.12,99,100,0.22,overcast clouds
426,Erenhot,CN,43.6475,111.9767,0.75,91,5,6.31,clear sky
427,Bayshore Gardens,US,27.4253,-82.5904,67.26,69,100,9.22,overcast clouds
428,Prince Rupert,CA,54.3161,-130.3201,44.69,81,100,13.8,overcast clouds
429,Grindavik,IS,63.8424,-22.4338,28.35,63,100,17.27,overcast clouds
430,Brae,GB,60.3964,-1.353,48.11,95,100,28.19,overcast clouds
431,Rawson,AR,-43.3002,-65.1023,74.32,61,8,15.48,clear sky
432,Fernie,CA,49.5,-115.0687,41.09,88,56,6.24,broken clouds
433,Nueve De Julio,AR,-35.4444,-60.8831,78.71,51,0,5.23,clear sky
434,Bastia,FR,42.6667,9.3333,51.3,82,0,5.75,clear sky
435,Doctor Arroyo,MX,23.6667,-100.1833,54.54,69,89,4.72,overcast clouds
436,Viedma,AR,-40.8135,-62.9967,92.12,18,0,16.67,clear sky
437,Luanda,AO,-8.8368,13.2343,78.98,83,59,10.02,broken clouds
438,Sorong,ID,-0.8833,131.25,80.55,81,100,11.97,overcast clouds
439,Mumford,GH,5.2618,-0.759,79.81,82,85,7.02,overcast clouds
440,Salisbury,GB,51.0693,-1.7957,50.29,94,100,10.36,mist
441,Lompoc,US,34.6391,-120.4579,72.79,44,0,0.0,clear sky
442,Juruti,BR,-2.1522,-56.0922,82.65,75,70,3.02,heavy intensity rain
443,Turukhansk,RU,65.8167,87.9833,-1.25,95,100,12.88,overcast clouds
444,Arrecife,ES,28.963,-13.5477,64.47,63,75,10.36,broken clouds
445,Harper,LR,4.375,-7.7169,79.95,81,65,7.67,broken clouds
446,Itapissuma,BR,-7.7764,-34.8922,82.44,70,87,9.69,moderate rain
447,Bocas Del Toro,PA,9.3333,-82.25,89.08,70,54,8.66,broken clouds
448,Arica,CL,-18.475,-70.3042,78.35,56,0,12.66,clear sky
449,Yingcheng,CN,30.95,113.55,33.85,86,100,9.1,overcast clouds
450,Orocue,CO,4.7912,-71.3354,97.48,21,92,11.79,overcast clouds
451,Staryy Nadym,RU,65.6118,72.6842,-15.66,99,35,6.06,scattered clouds
452,Acarau,BR,-2.8856,-40.12,72.97,88,100,10.22,overcast clouds
453,Porangatu,BR,-13.4408,-49.1486,74.91,92,100,3.02,overcast clouds
454,Houston,US,29.7633,-95.3633,60.15,39,0,4.0,clear sky
455,Orneta,PL,54.1148,20.1333,32.59,73,21,16.15,few clouds
456,Golden,US,39.7555,-105.2211,48.43,36,0,9.22,clear sky
457,Nuuk,GL,64.1835,-51.7216,23.61,93,100,19.57,heavy snow
458,Tsabong,BW,-26.0217,22.401,79.09,50,16,17.27,few clouds
459,Kamenka,RU,51.3223,42.7678,17.74,95,100,11.83,overcast clouds
460,Balkanabat,TM,39.5108,54.3671,39.09,73,6,3.27,clear sky
461,La Paz,BO,-16.5,-68.15,60.78,54,75,6.91,broken clouds
462,Nosy Varika,MG,-20.5833,48.5333,70.86,82,0,4.61,clear sky
463,Lannion,FR,48.75,-3.4167,49.41,100,100,6.91,mist
464,Paita,PE,-5.0892,-81.1144,79.36,75,89,13.69,overcast clouds
465,Champerico,GT,14.3,-91.9167,93.74,56,3,13.31,clear sky
466,Kihei,US,20.785,-156.4656,79.86,57,40,0.0,scattered clouds
467,Jacareacanga,BR,-6.2222,-57.7528,77.72,92,99,1.88,overcast clouds
468,Maku,IR,39.2911,44.4521,27.21,80,40,0.0,scattered clouds
469,Bar-Le-Duc,FR,48.75,5.1667,40.95,94,100,5.79,overcast clouds
470,Santa Cruz,BO,-17.8,-63.1667,87.85,55,40,13.8,scattered clouds
471,Wanaka,NZ,-44.7,169.15,64.11,50,43,7.0,scattered clouds
472,Taltal,CL,-25.4,-70.4833,68.86,71,30,7.72,scattered clouds
473,Pak Phanang,TH,8.3511,100.202,76.23,86,40,4.05,scattered clouds
474,Gueret,FR,46.1667,1.8667,32.63,96,66,2.48,broken clouds
475,Gazli,UZ,40.1333,63.45,39.18,60,100,22.24,overcast clouds
476,Maki,JP,37.75,138.8833,31.89,62,100,9.08,overcast clouds
477,Ternate,ID,0.8,127.4,79.3,84,62,6.24,broken clouds
478,Riyadh,SA,24.6877,46.7219,51.94,34,2,7.54,clear sky
479,Kudahuvadhoo,MV,2.6708,72.8944,80.13,61,27,9.57,scattered clouds
480,Raudeberg,NO,61.9875,5.1352,40.96,91,100,17.0,overcast clouds
481,Pasinler,TR,39.9803,41.6764,-3.01,92,85,3.78,overcast clouds
482,Riohacha,CO,11.5444,-72.9072,84.31,70,20,13.8,few clouds
483,Russell,US,32.3502,-85.1999,54.05,39,100,13.22,overcast clouds
484,Waingapu,ID,-9.6567,120.2641,77.76,86,100,6.22,overcast clouds
485,Manoel Urbano,BR,-8.8389,-69.2597,83.48,71,97,2.84,light rain
486,Lubumbashi,CD,-11.6609,27.4794,63.86,94,100,3.71,overcast clouds
487,Ishigaki,JP,24.3448,124.1572,68.31,89,100,9.22,overcast clouds
488,Kashkhatau,RU,43.3185,43.608,21.76,72,5,7.67,clear sky
489,Sao Domingos,BR,-13.3983,-46.3183,74.44,79,100,1.97,overcast clouds
490,Copala,MX,16.65,-98.9833,84.29,57,0,10.13,clear sky
491,Margate,GB,51.3813,1.3862,47.03,83,99,4.0,overcast clouds
492,Sinjar,IQ,36.3209,41.8754,41.09,50,71,7.07,broken clouds
493,Linguere,SN,15.3953,-15.1193,79.97,19,98,8.39,overcast clouds
494,Monterey,US,36.2505,-121.2516,66.11,28,100,5.59,overcast clouds
495,Chirongui,YT,-12.9319,45.1483,78.73,67,90,4.83,overcast clouds
496,Sioux Lookout,CA,50.1001,-91.917,5.38,60,20,5.75,few clouds
497,Krasnoborsk,RU,61.5598,45.934,14.61,92,100,7.94,light snow
498,Nolinsk,RU,57.5596,49.9363,17.92,96,100,6.29,light snow
499,Kemin,KG,42.7846,75.6892,32.36,59,100,4.92,light snow
500,Usinsk,RU,65.9939,57.5281,1.96,97,98,12.08,overcast clouds
501,Yaypan,UZ,40.3758,70.8156,40.53,47,100,7.83,light rain
502,Kenscoff,HT,18.4506,-72.2869,68.14,61,20,11.5,few clouds
503,Kirakira,SB,-10.4544,161.9205,80.67,85,97,7.18,light rain
504,Muros,ES,42.7762,-9.0603,50.85,69,0,8.12,clear sky
505,Oranjestad,AW,12.524,-70.027,84.15,58,20,13.8,few clouds
506,Bhinga,IN,27.7167,81.9333,49.05,71,0,3.02,clear sky
507,Nha Trang,VN,12.25,109.1833,69.8,91,71,5.48,broken clouds
508,Macapa,BR,0.0389,-51.0664,78.78,94,100,19.57,mist
509,Antofagasta,CL,-23.65,-70.4,71.22,66,28,8.93,scattered clouds
510,Cooma,AU,-36.2333,149.1333,65.97,94,100,6.91,light rain
511,Lahat,ID,-3.8,103.5333,71.8,97,100,2.08,overcast clouds
512,Rio Linda,US,38.691,-121.4486,68.99,46,0,1.01,clear sky
513,Hualmay,PE,-11.0964,-77.6139,73.11,74,100,9.55,overcast clouds
514,Teodoro Sampaio,BR,-22.5325,-52.1675,72.1,96,100,2.64,overcast clouds
515,Bulgan,MN,48.8125,103.5347,-8.48,94,71,4.03,broken clouds
516,Pacific Grove,US,36.6177,-121.9166,71.42,33,0,3.0,clear sky
517,Torres,BR,-29.3353,-49.7269,67.82,78,96,4.88,overcast clouds
518,Akropong,GH,5.9746,-0.0854,77.95,63,83,2.71,broken clouds
519,Palora,EC,-1.7,-77.9333,82.38,75,82,1.77,light rain
520,Patterson,US,37.4716,-121.1297,66.85,60,100,1.68,overcast clouds
521,Cairns,AU,-16.9167,145.7667,76.06,94,75,9.22,broken clouds
522,Atherton,GB,53.5237,-2.4935,52.16,84,100,8.01,overcast clouds
523,Dourados,BR,-22.2211,-54.8056,73.87,91,98,6.44,overcast clouds
524,Tezu,IN,27.9167,96.1667,50.65,56,0,4.34,clear sky
525,Santa Ana,US,33.7456,-117.8678,74.46,12,0,4.0,clear sky
526,Jumla,NP,29.2747,82.1838,31.21,37,0,5.57,clear sky
527,Guerrero Negro,MX,27.9769,-114.0611,71.8,24,40,3.18,scattered clouds
528,Aswan,EG,24.0934,32.907,51.1,40,0,8.05,clear sky
529,Uray,RU,60.1247,64.7758,-8.12,100,87,4.21,overcast clouds
530,Hami,CN,42.8,93.45,21.63,51,0,5.08,clear sky
531,Kalemie,CD,-5.9475,29.1947,70.52,82,100,4.38,overcast clouds
532,Kuminskiy,RU,58.6667,66.5667,-3.98,100,61,4.38,broken clouds
533,Norrtalje,SE,59.758,18.705,30.29,76,63,5.48,broken clouds
534,Churapcha,RU,62.0025,132.4325,-30.53,100,100,3.15,overcast clouds
535,Noumea,NC,-22.2763,166.4572,79.0,99,100,12.19,overcast clouds
536,Kapit,MY,2.0167,112.9333,72.66,99,100,0.76,overcast clouds
537,Giresun,TR,40.5,38.5,6.12,95,79,7.92,broken clouds
538,Pozo Colorado,PY,-23.4923,-58.7972,86.77,42,72,9.73,broken clouds
539,Bar Harbor,US,44.3876,-68.2039,31.6,59,100,3.0,overcast clouds
540,Hirara,JP,24.8,125.2833,67.33,88,100,9.42,overcast clouds
541,Mogadishu,SO,2.0371,45.3438,77.05,79,76,21.3,broken clouds
542,Nabire,ID,-3.3667,135.4833,75.33,92,100,2.46,overcast clouds
543,Ixtapa,MX,20.7,-105.2,76.23,61,40,9.22,scattered clouds
544,Chippenham,GB,51.46,-2.1247,51.55,97,100,1.01,overcast clouds
545,Yaan,NG,7.3833,8.5667,83.08,17,100,6.67,overcast clouds
546,Mehran,IR,33.1222,46.1646,42.28,55,69,5.97,broken clouds
547,Townsville,AU,-19.25,146.8,74.28,94,75,4.61,broken clouds
548,Sechura,PE,-5.5569,-80.8222,78.31,65,66,16.35,broken clouds
549,Sayyan,YE,15.1718,44.3244,51.96,21,18,3.89,few clouds
550,Sandnessjoen,NO,66.0217,12.6316,35.58,88,75,3.0,broken clouds
551,Ust-Kut,RU,56.7938,105.7672,-17.19,100,100,1.32,overcast clouds
552,Ilanskiy,RU,56.2358,96.065,-16.29,100,100,2.55,overcast clouds
553,Conde,BR,-7.2597,-34.9075,80.06,83,20,5.75,moderate rain
554,Marzuq,YE,14.4,46.4667,63.68,37,30,3.13,scattered clouds
555,Muscle Shoals,US,34.7448,-87.6675,44.94,43,75,5.01,broken clouds
556,Onguday,RU,50.75,86.15,-17.77,98,45,2.84,scattered clouds
557,Nikolayevsk-Na-Amure,RU,53.1406,140.73,-22.68,99,59,3.76,broken clouds
558,Adre,TD,13.4667,22.2,61.99,17,14,14.58,few clouds
559,Shubarshi,KZ,48.5872,57.1869,17.15,91,100,3.96,overcast clouds
560,Porto Novo,BJ,6.4965,2.6036,82.22,76,74,5.88,broken clouds
561,Charters Towers,AU,-20.1,146.2667,72.32,91,66,8.84,broken clouds
562,Straumen,NO,63.8709,11.2999,36.95,89,100,3.85,light rain
563,Itigi,TZ,-5.7,34.4833,64.35,93,100,1.43,light rain
564,Poplar Bluff,US,36.757,-90.3929,40.59,30,0,16.11,clear sky
565,Dezhou,CN,37.4486,116.2925,29.39,47,71,2.3,broken clouds
566,Sao Filipe,CV,14.8961,-24.4956,71.58,70,100,10.33,overcast clouds
567,Sumenep,ID,-7.0167,113.8667,77.59,88,100,7.2,moderate rain
568,Solnechnyy,RU,50.7214,136.6319,-8.36,98,100,2.62,overcast clouds
569,Luau,AO,-10.7073,22.2247,64.98,90,100,2.75,overcast clouds
570,Agadez,NE,19.75,10.25,56.71,17,0,5.77,clear sky
571,Puerto Carreno,CO,6.189,-67.4859,93.18,33,20,8.05,few clouds
572,Bubaque,GW,11.2833,-15.8333,77.99,65,18,14.58,few clouds
573,Timbiqui,CO,2.7717,-77.6654,75.15,91,99,6.98,light rain
574,Yeppoon,AU,-23.1333,150.7333,73.18,80,82,13.56,broken clouds
575,Ampanihy,MG,-24.7,44.75,69.01,86,0,6.26,clear sky
576,Tamworth,GB,52.634,-1.6959,50.02,91,100,4.0,overcast clouds
577,Notre-Dame-Du-Lac,CA,47.6136,-68.7964,12.54,87,98,7.76,overcast clouds
578,Sundumbili,ZA,-29.1337,31.3975,71.91,92,100,6.87,light rain
579,Vanimo,PG,-2.6741,141.3028,75.88,90,93,4.0,overcast clouds
580,Pangnirtung,CA,66.1451,-65.7125,-11.2,70,100,0.0,light snow
581,Necochea,AR,-38.5473,-58.7368,80.04,43,0,8.39,clear sky
582,Stolbishche,RU,55.6468,49.216,16.25,92,100,8.99,snow
583,Evensk,RU,61.95,159.2333,17.58,68,100,29.15,overcast clouds
584,Mahanje,TZ,-9.9333,35.3333,65.77,98,100,2.89,moderate rain
585,Iralaya,HN,15.0,-83.2333,82.49,77,26,4.56,scattered clouds
586,Omboue,GA,-1.5746,9.2618,78.48,87,91,6.38,overcast clouds
587,Nyurba,RU,63.2842,118.3319,-22.63,100,13,3.38,few clouds
588,Yulara,AU,-25.2406,130.9889,78.64,47,87,10.36,overcast clouds
589,Tupik,RU,54.4253,119.9327,-9.44,94,100,2.37,overcast clouds
590,Ubala,CO,4.7478,-72.5369,97.34,23,95,9.89,overcast clouds
591,Port Hedland,AU,-20.3167,118.5667,80.65,74,94,9.22,overcast clouds
592,Xining,CN,36.6167,101.7667,9.72,86,90,2.82,overcast clouds
593,Fushan,CN,37.4958,121.2581,29.53,59,77,4.07,broken clouds
594,Minab,IR,27.1467,57.0801,68.32,77,30,0.0,scattered clouds
595,Safranbolu,TR,41.2508,32.6942,21.13,88,86,2.13,overcast clouds
596,Linjiang,CN,41.8069,126.9078,-0.71,99,93,1.86,overcast clouds
597,Acari,PE,-15.4311,-74.6158,78.42,56,9,10.83,clear sky
598,Freeport,US,40.6576,-73.5832,35.33,79,100,1.01,haze
599,Erzin,TR,36.9559,36.2,37.92,76,29,4.97,scattered clouds
600,Kuusamo,FI,65.9667,29.1833,15.84,92,100,6.91,overcast clouds
601,Nacajuca,MX,18.1333,-93.0167,81.01,79,46,12.35,scattered clouds
602,Invermere,CA,50.5167,-116.0354,23.36,76,56,3.74,broken clouds
603,Planaltina,BR,-15.4528,-47.6142,77.29,87,100,3.4,overcast clouds
604,Pizarro,CO,4.9533,-77.366,79.68,84,64,5.7,light rain
605,Santa Ines,BR,-3.6667,-45.38,73.89,96,100,4.83,overcast clouds
606,Nago,JP,26.5881,127.9761,64.47,89,100,10.45,overcast clouds
607,Stornoway,GB,58.2093,-6.3865,51.76,94,75,10.0,broken clouds
608,Kholodnyy,RU,62.7167,147.95,-6.83,97,100,5.12,overcast clouds
609,Baft,IR,29.234,56.6057,38.32,64,42,2.1,scattered clouds
610,Nawa,IN,27.0167,75.0,51.94,33,0,1.92,clear sky
611,Kapoeta,SS,4.7717,33.5903,83.77,22,5,2.93,clear sky
612,Zakamensk,RU,50.3741,103.2863,-7.73,99,96,1.92,overcast clouds
613,Severodvinsk,RU,64.5635,39.8302,14.11,100,90,4.81,overcast clouds
614,Gizo,SB,-8.103,156.8419,82.33,75,85,7.72,overcast clouds
615,Otuzco,PE,-7.9,-78.5833,35.92,89,100,6.55,light rain
616,Alihe,CN,50.5667,123.7167,2.23,84,100,5.46,overcast clouds
617,Okha,RU,53.5739,142.9478,-17.28,96,10,10.38,clear sky
618,Kindu,CD,-2.95,25.95,72.7,89,100,0.47,overcast clouds
619,Caazapa,PY,-26.15,-56.4,91.98,30,43,8.5,scattered clouds
620,Carolina,PR,18.3808,-65.9574,84.72,62,20,13.8,few clouds
621,Muzhi,RU,65.3667,64.6667,-7.91,94,89,3.98,overcast clouds
622,Campbell River,CA,50.0163,-125.2446,36.93,100,100,2.3,mist
623,Candido Mendes,BR,-1.4467,-45.7167,73.92,96,100,6.51,overcast clouds
624,Te Anau,NZ,-45.4167,167.7167,58.98,68,67,5.64,broken clouds
625,Nuevo Progreso,MX,23.1667,-97.95,65.59,70,100,8.99,overcast clouds
626,Namatanai,PG,-3.6667,152.4333,80.28,81,91,3.09,overcast clouds
627,Sofiyivka,UA,48.0493,33.8746,29.23,97,83,13.98,broken clouds
628,Gidam,IN,18.9833,81.4,53.29,47,13,3.69,few clouds
629,Mantua,IT,45.1667,10.7833,42.44,72,17,4.0,few clouds
630,Irituia,BR,-1.7711,-47.4381,74.03,97,97,4.12,overcast clouds
631,Cody,US,44.5263,-109.0565,46.65,59,0,9.22,clear sky
632,Muskegon,US,43.3,-86.1334,23.02,53,75,4.61,broken clouds
633,Pacifica,US,37.6138,-122.4869,65.88,50,75,4.0,broken clouds
634,Kajaani,FI,64.2273,27.7285,19.45,93,75,9.22,broken clouds
635,Solana Beach,US,32.9912,-117.2711,75.72,15,0,7.0,clear sky
636,San Jose,US,37.3394,-121.895,69.8,41,75,1.99,broken clouds
637,Estancia,BR,-11.2683,-37.4383,81.88,79,78,5.86,broken clouds
638,Rock Sound,BS,24.9,-76.2,76.44,75,100,15.88,overcast clouds
639,Shache,CN,38.4167,77.2406,24.04,45,76,3.6,broken clouds
640,Santarem,BR,-2.4431,-54.7083,80.73,94,75,2.3,light rain
641,Kutum,SD,14.2,24.6667,54.14,17,4,10.69,clear sky
642,Inhambane,MZ,-23.865,35.3833,76.24,80,4,5.77,clear sky
643,Maryville,US,35.7565,-83.9705,39.29,67,100,5.99,overcast clouds
644,Nhulunbuy,AU,-12.2333,136.7667,81.21,89,40,10.36,moderate rain
645,Katobu,ID,-4.9408,122.5276,75.61,90,100,1.32,overcast clouds
646,Bilma,NE,18.6853,12.9164,61.0,18,0,9.13,clear sky
647,New Bern,US,35.1085,-77.0441,48.22,54,100,9.22,overcast clouds
648,Dongsheng,CN,39.8161,109.9776,17.17,45,0,4.83,clear sky
649,Udachnyy,RU,66.4167,112.4,-25.85,100,52,3.51,broken clouds
650,Shahr-E Babak,IR,30.1165,55.1186,41.7,58,85,3.8,overcast clouds
651,Black River,JM,18.0264,-77.8487,82.4,67,24,5.84,few clouds
652,Northam,GB,51.0333,-4.2167,50.41,98,99,16.44,overcast clouds
653,Zlitan,LY,32.4674,14.5687,53.4,59,0,11.21,clear sky
654,Harlingen,US,26.1906,-97.6961,53.51,89,100,16.11,overcast clouds
655,Tilichiki,RU,60.4667,166.1,26.11,85,100,32.23,light snow
656,Jining,CN,35.405,116.5814,31.15,42,50,3.29,scattered clouds
657,Korla,CN,41.7597,86.1469,22.05,61,0,5.7,clear sky
658,Pacocha,PE,-17.5833,-71.3333,71.1,75,83,6.11,broken clouds
659,Kargat,RU,55.1956,80.2811,-0.33,96,94,5.35,overcast clouds
660,Manuk Mangkaw,PH,4.8,119.85,82.04,71,41,3.87,scattered clouds
661,Stelle,DE,53.3842,10.1114,40.41,81,100,9.13,overcast clouds
662,Nantucket,US,41.2835,-70.0995,37.51,76,100,3.69,overcast clouds
663,Yenotayevka,RU,47.2456,47.0281,16.88,95,7,5.64,clear sky
664,Baraboo,US,43.4711,-89.7443,18.99,50,0,9.22,clear sky
665,Visnes,NO,59.3556,5.2242,42.85,93,100,21.85,light rain
666,Bisira,PA,8.5196,-81.7115,69.93,58,96,4.43,overcast clouds
667,Tura,IN,25.5198,90.2201,49.82,54,0,3.09,clear sky
668,Tierranueva,MX,21.6833,-100.5667,63.86,53,36,16.08,scattered clouds
669,Saint-Joseph,RE,-21.3667,55.6167,75.56,74,7,7.56,clear sky
670,Dafeng,CN,23.4517,108.5881,48.04,84,100,8.03,overcast clouds
671,Izumo,JP,35.3667,132.7667,40.95,69,100,6.33,overcast clouds
672,Ivdel,RU,60.6911,60.4206,-9.63,98,79,3.18,broken clouds
673,Svetlaya,RU,46.5389,138.3297,1.67,74,8,8.12,clear sky
674,Mandalgovi,MN,45.7625,106.2708,4.71,86,100,4.0,overcast clouds
675,Kushnarenkovo,RU,55.105,55.3508,1.78,96,100,2.82,overcast clouds
676,Shanghai,CN,31.2222,121.4581,37.92,74,75,1.01,light snow
677,Batsfjord,NO,70.6345,29.7185,31.93,64,75,16.11,broken clouds
678,Udaipura,IN,23.0833,78.5,51.6,44,0,3.4,clear sky
679,Minna,NG,9.6139,6.5569,82.11,24,80,13.8,haze
680,Calabozo,VE,8.9242,-67.4293,93.92,28,30,10.94,scattered clouds
681,Westport,US,41.1415,-73.3579,34.29,76,100,3.0,overcast clouds
